{
    "17/08/2025": {
        "invention": "The telephone",
        "year": 1876,
        "location": {
            "lat": 42.35,
            "lng": -71.08
        },
        "locationName": "Boston, Massachusetts",
        "inventor": "Alexander Graham Bell"
    },
    "18/08/2025": {
        "invention": "The light bulb",
        "year": 1879,
        "location": {
            "lat": 40.56,
            "lng": -74.34
        },
        "locationName": "Menlo Park, New Jersey",
        "inventor": "Thomas Edison"
    },
    "19/08/2025": {
        "invention": "The steam engine",
        "year": 1698,
        "location": {
            "lat": 50.39,
            "lng": -3.87
        },
        "locationName": "Devonshire, England",
        "inventor": "Thomas Savery"
    },
    "20/08/2025": {
        "invention": "The Locomotive",
        "year": 1804,
        "location": {
            "lat": 51.76,
            "lng": -3.37
        },
        "locationName": "Pen-Y-Darren, Wales",
        "inventor": "Richard Trevithick"
    },
    "21/08/2025": {
        "invention": "The World Wide Web",
        "year": 1989,
        "location": {
            "lat": 46.23,
            "lng": 6.06
        },
        "locationName": "Geneva, Switzerland",
        "inventor": "Tim Berners-Lee"
    },
    "22/08/2025": {
        "invention": "Wifi",
        "year": 1997,
        "location": {
            "lat": -35.27,
            "lng": 149.11
        },
        "locationName": "Canberra, Australia",
        "inventor": "John O'Sullivan"
    },
    "23/08/2025": {
        "invention": "The Car",
        "year": 1886,
        "location": {
            "lat": 49.47,
            "lng": 8.49
        },
        "locationName": "Mannheim, Germany",
        "inventor": "Carl Benz"
    },
    "24/08/2025": {
        "invention": "The Hot Air Balloon",
        "year": 1783,
        "location": {
            "lat": 48.86,
            "lng": 2.27
        },
        "locationName": "Paris, France",
        "inventor": "Montgolifer brothers"
    },
    "25/08/2025": {
        "invention": "Calculus",
        "year": 1666,
        "location": {
            "lat": 52.81,
            "lng": -0.63
        },
        "locationName": "Woolsthorpe, England",
        "inventor": "Isaac Newton"
    },
    "26/08/2025": {
        "invention": "Dynamite",
        "year": 1867,
        "location": {
            "lat": 53.43,
            "lng": 10.37
        },
        "locationName": "Geesthact, Germany",
        "inventor": "Alfred Nobel"
    },
    "27/08/2025": {
        "invention": "Nylon",
        "year": 1935,
        "location": {
            "lat": 39.77,
            "lng": -75.57
        },
        "locationName": "Wilmington, Delware",
        "inventor": "Wallace Carothers"
    },
    "28/08/2025": {
        "invention": "The Radio",
        "year": 1895,
        "location": {
            "lat": 44.43,
            "lng": 11.26
        },
        "locationName": "Bologna, Italy",
        "inventor": "Guglielmo Marconi"
    },
    "29/08/2025": {
        "invention": "Penicillin",
        "year": 1928,
        "location": {
            "lat": 51.52,
            "lng": -0.17
        },
        "locationName": "London, England",
        "inventor": "Alexander Fleming"
    },
    "30/08/2025": {
        "invention": "The telescope",
        "year": 1608,
        "location": {
            "lat": 51.50,
            "lng": 3.61
        },
        "locationName": "Middelburg, Netherlands",
        "inventor": "Hans Lippershey"
    },
    "31/08/2025": {
        "invention": "Nitrogen fixation",
        "year": 1909,
        "location": {
            "lat": 49.01,
            "lng": 8.42
        },
        "locationName": "Karlsruhe, Germany",
        "inventor": "Fritz Haber"
    },
    "01/09/2025": {
        "invention": "The atomic bomb",
        "year": 1945,
        "location": {
            "lat": 35.88,
            "lng": -106.32
        },
        "locationName": "Los Alamos, New Mexico",
        "inventor": "Robert Oppenheimer"
    }
}